[{"name":"Hotel Belleclaire","lat":40.78238,"lon":-73.98117,"zone":239},{"name":"Hotel Churchill","lat":40.78194,"lon":-73.9825,"zone":239},{"name":"Country Inn & Suites by Carlson","lat":40.75307,"lon":-73.93849,"zone":146},{"name":"Amsterdam Inn","lat":40.78142,"lon":-73.97994,"zone":239},{"name":"Conrad","lat":40.71496,"lon":-74.01569,"zone":13},{"name":"The Frederick Hotel","lat":40.71558,"lon":-74.00886,"zone":231},{"name":"Latham","lat":40.74434,"lon":-73.98671,"zone":234},{"name":"Mandarin Oriental","lat":40.76901,"lon":-73.98291,"zone":142},{"name":"Hotel 99","lat":40.79665,"lon":-73.97083,"zone":151},{"name":"The Standard, East Village","lat":40.72783,"lon":-73.99074,"zone":79},{"name":"Tempo by Hilton New York Times Square","lat":40.75901,"lon":-73.98448,"zone":230},{"name":"Clarion Hotel Park Avenue","lat":40.74413,"lon":-73.98321,"zone":170},{"name":"Fitzpatrick Grand Central Hotel","lat":40.75266,"lon":-73.97448,"zone":162},{"name":"adour alan ducasse","lat":40.76107,"lon":-73.97397,"zone":161},{"name":"St Regis","lat":40.76125,"lon":-73.97433,"zone":161},{"name":"TRYP","lat":40.75375,"lon":-73.99459,"zone":68},{"name":"Night Hotel","lat":40.79326,"lon":-73.97221,"zone":238},{"name":"YOTEL","lat":40.75909,"lon":-73.99544,"zone":48},{"name":"Ink 48 Hotel","lat":40.76452,"lon":-73.99589,"zone":50},{"name":"Nu Hotel","lat":40.68883,"lon":-73.9888,"zone":25},{"name":"Hotel Beacon","lat":40.78074,"lon":-73.98109,"zone":239},{"name":"W Hotels","lat":40.75599,"lon":-73.9725,"zone":162},{"name":"Hotel Verve","lat":40.75211,"lon":-73.93554,"zone":146},{"name":"Holiday Inn Long Island City-Manhattan View","lat":40.7533,"lon":-73.93441,"zone":146},{"name":"Hotel Vetiver","lat":40.75335,"lon":-73.93388,"zone":146},{"name":"Nesva Hotel","lat":40.75324,"lon":-73.93487,"zone":146},{"name":"Senton Hotel","lat":40.74514,"lon":-73.99002,"zone":234},{"name":"Broadway Plaza Hotel","lat":40.74447,"lon":-73.98911,"zone":234},{"name":"Hotel Giraffe","lat":40.74214,"lon":-73.98472,"zone":107},{"name":"Hotel Chelsea","lat":40.74437,"lon":-73.99682,"zone":90},{"name":"Vista LIC Hotel","lat":40.75438,"lon":-73.93571,"zone":146},{"name":"The GEM Hotel Chelsea","lat":40.74465,"lon":-73.99938,"zone":68},{"name":"Wythe Hotel","lat":40.7219,"lon":-73.95806,"zone":255},{"name":"Modernhaus SoHo","lat":40.72263,"lon":-74.00484,"zone":211},{"name":"St. Mark's Hotel","lat":40.72928,"lon":-73.98963,"zone":79},{"name":"Roger Smith Hotel","lat":40.75494,"lon":-73.97423,"zone":162},{"name":"Sohotel","lat":40.71953,"lon":-73.99473,"zone":144},{"name":"NobleDen","lat":40.71928,"lon":-73.99681,"zone":144},{"name":"The Gatsby Hotel","lat":40.72319,"lon":-73.99021,"zone":148},{"name":"U.S. Pacific","lat":40.71792,"lon":-73.99527,"zone":144},{"name":"SoHo 54 Hotel","lat":40.72382,"lon":-74.00526,"zone":125},{"name":"The Manhattan at Times Square Hotel","lat":40.76217,"lon":-73.98297,"zone":230},{"name":"Courtyard","lat":40.7574,"lon":-73.96989,"zone":162},{"name":"Renaissance New York Times Square Hotel","lat":40.75974,"lon":-73.98458,"zone":230},{"name":"Carlton Arms Hotel","lat":40.7402,"lon":-73.98267,"zone":107},{"name":"The Marcel","lat":40.73946,"lon":-73.98225,"zone":137},{"name":"Parksouth Hotel","lat":40.74278,"lon":-73.9831,"zone":107},{"name":"The Fifth Avenue Hotel","lat":40.74499,"lon":-73.98779,"zone":164},{"name":"The Quin","lat":40.76465,"lon":-73.97748,"zone":163},{"name":"WestHouse Hotel New York, an SLH Hotel","lat":40.76438,"lon":-73.9811,"zone":163},{"name":"Mondrian Park Avenue","lat":40.7448,"lon":-73.98324,"zone":164},{"name":"Refinery","lat":40.75217,"lon":-73.98536,"zone":164},{"name":"Americana Inn","lat":40.75223,"lon":-73.98551,"zone":164},{"name":"Westgate New York Grand Central Hotel","lat":40.7495,"lon":-73.97189,"zone":233},{"name":"70 Park Avenue Hotel","lat":40.74986,"lon":-73.97963,"zone":170},{"name":"M Social Hotel New York Times Square","lat":40.76276,"lon":-73.98359,"zone":230},{"name":"Hotel Belnord","lat":40.78879,"lon":-73.97527,"zone":238},{"name":"The Hotel Newton","lat":40.79354,"lon":-73.97226,"zone":238},{"name":"Best Western Convention Center","lat":40.75733,"lon":-73.9983,"zone":246},{"name":"World Center Hotel","lat":40.70982,"lon":-74.01388,"zone":261},{"name":"Sonder at Battery Park","lat":40.7057,"lon":-74.01548,"zone":261},{"name":"Hyatt Centric","lat":40.70504,"lon":-74.00789,"zone":87},{"name":"Eurostars Wall Street","lat":40.70519,"lon":-74.0062,"zone":87},{"name":"Fairfield Inn New York Manhattan/Financial District","lat":40.70598,"lon":-74.00505,"zone":87},{"name":"33 Hotel, New York City, Seaport","lat":40.70801,"lon":-74.00142,"zone":209},{"name":"Hotel91","lat":40.71364,"lon":-73.99363,"zone":45},{"name":"Holiday Inn","lat":40.75461,"lon":-73.85392,"zone":57},{"name":"La Quinta Inn","lat":40.74389,"lon":-73.92736,"zone":226},{"name":"Feather Factory Hotel","lat":40.74418,"lon":-73.94065,"zone":145},{"name":"WESTWAY HOTEL LAGUARDIA AIRPORT","lat":40.76712,"lon":-73.89667,"zone":223},{"name":"Andaz","lat":40.75283,"lon":-73.98109,"zone":170},{"name":"Hilton New York Fashion District","lat":40.74559,"lon":-73.9936,"zone":90},{"name":"Ramada Flushing","lat":40.76155,"lon":-73.83271,"zone":92},{"name":"Park Hyatt New York","lat":40.76542,"lon":-73.97931,"zone":163},{"name":"The Parc Hotel","lat":40.75837,"lon":-73.83459,"zone":92},{"name":"The Paul","lat":40.7461,"lon":-73.98915,"zone":164},{"name":"Hotel Boutique","lat":40.75376,"lon":-73.97413,"zone":162},{"name":"Club Quarters Hotel","lat":40.75315,"lon":-73.97442,"zone":162},{"name":"Union Square Inn","lat":40.73311,"lon":-73.98633,"zone":107},{"name":"Sunshine Hotel","lat":40.72264,"lon":-73.99292,"zone":148},{"name":"Chelsa Inn Hotel","lat":40.73867,"lon":-73.99457,"zone":234},{"name":"Residence Inn The Bronx","lat":40.84997,"lon":-73.84252,"zone":242},{"name":"Hilton Garden Inn Queens/JFK Airport","lat":40.66568,"lon":-73.80629,"zone":216},{"name":"Gate Hotel","lat":40.66571,"lon":-73.8067,"zone":216},{"name":"Millennium Hilton One UN Plaza","lat":40.75055,"lon":-73.96943,"zone":233},{"name":"The Townhouse Inn of Chelsea","lat":40.74352,"lon":-73.99385,"zone":90},{"name":"The Boro Hotel","lat":40.7547,"lon":-73.93594,"zone":146},{"name":"World Hotel","lat":40.71747,"lon":-73.99498,"zone":148},{"name":"The Tillary Hotel","lat":40.6966,"lon":-73.98453,"zone":65},{"name":"The Renwick Hotel","lat":40.75018,"lon":-73.97762,"zone":170},{"name":"Hotel Seville NoMad","lat":40.74464,"lon":-73.9856,"zone":164},{"name":"Chambers Hotel New York","lat":40.76293,"lon":-73.97537,"zone":163},{"name":"Wyndham Garden Manhattan Chelsea West","lat":40.74321,"lon":-73.99087,"zone":234},{"name":"Mint House","lat":40.70639,"lon":-74.00744,"zone":87},{"name":"The Wallace","lat":40.78186,"lon":-73.98189,"zone":239},{"name":"Efuru Guest House","lat":40.80471,"lon":-73.94857,"zone":41},{"name":"Hilton Garden Inn Long Island City/New York","lat":40.75023,"lon":-73.9369,"zone":146},{"name":"Sanctuary Hotel","lat":40.75847,"lon":-73.98321,"zone":230},{"name":"Royalton Park Avenue","lat":40.74389,"lon":-73.98389,"zone":164},{"name":"Radio City Apartment","lat":40.76002,"lon":-73.98295,"zone":230},{"name":"The Inn at Irving Place","lat":40.73602,"lon":-73.98703,"zone":107},{"name":"Residence Inn New York Manhattan/Central Park","lat":40.76434,"lon":-73.9827,"zone":163},{"name":"Chelsea Savoy Hotel","lat":40.74409,"lon":-73.99601,"zone":90},{"name":"Richmond Hotel","lat":40.63995,"lon":-74.07628,"zone":206},{"name":"Ameritania at Times Square","lat":40.76406,"lon":-73.98281,"zone":230},{"name":"hull","lat":40.68011,"lon":-73.90636,"zone":177},{"name":"49 Crosby","lat":40.72218,"lon":-73.99825,"zone":144},{"name":"JG Sohotel","lat":40.71878,"lon":-74.00041,"zone":144},{"name":"Arthouse Hotel","lat":40.78216,"lon":-73.98039,"zone":239},{"name":"Soho Grand Hotel","lat":40.722,"lon":-74.00436,"zone":211},{"name":"The William Vale","lat":40.72241,"lon":-73.95692,"zone":255},{"name":"Red Lion Inn & Suites","lat":40.75002,"lon":-73.94137,"zone":145},{"name":"Four Seasons Private Residences New York Downtown;Four Seasons Hotel New York Downtown","lat":40.71275,"lon":-74.00921,"zone":231},{"name":"Hilton","lat":40.68954,"lon":-73.98796,"zone":25},{"name":"The Queens Hotel","lat":40.7413,"lon":-73.89996,"zone":260},{"name":"Nolitan Hotel","lat":40.72061,"lon":-73.99532,"zone":144},{"name":"New York EDITION","lat":40.74128,"lon":-73.98738,"zone":234},{"name":"U Hotel Fifth Avenue","lat":40.74913,"lon":-73.98382,"zone":170},{"name":"Best Western Plaza","lat":40.75594,"lon":-73.94116,"zone":193},{"name":"Apollo Hotel","lat":40.80658,"lon":-73.94974,"zone":41},{"name":"Residence Inn Manhattan/Times Square","lat":40.75283,"lon":-73.98584,"zone":100},{"name":"Colonial House","lat":40.74488,"lon":-73.99997,"zone":68},{"name":"Howard Johnson Inn","lat":40.6686,"lon":-73.78129,"zone":218},{"name":"John Hotel","lat":40.76022,"lon":-73.83431,"zone":92},{"name":"Best Western","lat":40.76185,"lon":-73.76084,"zone":16},{"name":"Heritage Hotel","lat":40.74328,"lon":-73.99004,"zone":234},{"name":"St Nicholas Hotel","lat":40.8307,"lon":-73.94164,"zone":116},{"name":"Haven Hotel","lat":40.7154,"lon":-73.86008,"zone":196},{"name":"The Mark","lat":40.77532,"lon":-73.96326,"zone":236},{"name":"Orchard Street Hotel","lat":40.72115,"lon":-73.98885,"zone":148},{"name":"SpringHill Suites Marriott","lat":40.75823,"lon":-73.85739,"zone":70},{"name":"Flushing Meadows hotel","lat":40.75213,"lon":-73.85358,"zone":57},{"name":"Hotel Riu Plaza New York Times Square","lat":40.76021,"lon":-73.98819,"zone":48},{"name":"Flushing Hotel","lat":40.76208,"lon":-73.83163,"zone":92},{"name":"Marriott","lat":40.66637,"lon":-73.78019,"zone":219},{"name":"Elmhurst Hotel","lat":40.74801,"lon":-73.88479,"zone":129},{"name":"Mercer Hotel","lat":40.72491,"lon":-73.99864,"zone":211},{"name":"Hotel Hayden","lat":40.74688,"lon":-73.99215,"zone":186},{"name":"Four Points by Sheraton","lat":40.70746,"lon":-74.00645,"zone":87},{"name":"Duane Street Hotel","lat":40.71599,"lon":-74.00734,"zone":231},{"name":"Hoxton","lat":40.72083,"lon":-73.95878,"zone":255},{"name":"Avalon Hotel","lat":40.74663,"lon":-73.98459,"zone":164},{"name":"Sheraton","lat":40.72086,"lon":-74.00427,"zone":231},{"name":"The Gardens Sonesta ES Suites","lat":40.76439,"lon":-73.96311,"zone":141},{"name":"The Fifty Sonesta Select","lat":40.75615,"lon":-73.97089,"zone":162},{"name":"The Shelburne Sonesta","lat":40.74844,"lon":-73.97806,"zone":170},{"name":"McCarren Hotel & Pool","lat":40.72091,"lon":-73.95553,"zone":255},{"name":"TWA Hotel","lat":40.64577,"lon":-73.77767,"zone":132},{"name":"Sago Hotel","lat":40.71949,"lon":-73.98994,"zone":148},{"name":"hotel mela","lat":40.75652,"lon":-73.98434,"zone":230},{"name":"Soho Garden Hotel","lat":40.71902,"lon":-74.00167,"zone":231},{"name":"Marco LaGuardia Hotel & Suites","lat":40.76347,"lon":-73.83104,"zone":92},{"name":"Courtyard New York Downtown Manhattan/World Trade Center Area","lat":40.70827,"lon":-74.01362,"zone":261},{"name":"Club Quarters Hotel at World Trade Center","lat":40.70979,"lon":-74.01389,"zone":261},{"name":"The Pod Times Square","lat":40.7585,"lon":-73.99323,"zone":48},{"name":"Club Quarter Hôtel","lat":40.75599,"lon":-73.98126,"zone":161},{"name":"The Hotel @ Times Square","lat":40.75711,"lon":-73.9813,"zone":161},{"name":"Park Terrace Hotel","lat":40.75245,"lon":-73.98297,"zone":164},{"name":"Oyo Hotel","lat":40.69965,"lon":-73.81094,"zone":130},{"name":"The Henry Norman Hotel","lat":40.72803,"lon":-73.94425,"zone":112},{"name":"East Village Hotel","lat":40.72843,"lon":-73.98517,"zone":79},{"name":"Hampton Inn","lat":40.66741,"lon":-73.7949,"zone":10},{"name":"Hilton Garden Inn Midtown Park Avenue","lat":40.74681,"lon":-73.98234,"zone":164},{"name":"Paramount Hotel","lat":40.75924,"lon":-73.98692,"zone":230},{"name":"Fairfield Inn & Suites New York Queens/Jamaica","lat":40.70101,"lon":-73.80518,"zone":130},{"name":"Residence Inn New York JFK Airport","lat":40.66795,"lon":-73.79666,"zone":10},{"name":"Four Points by Sheraton Flushing","lat":40.76486,"lon":-73.83241,"zone":92},{"name":"The Franklin","lat":40.77959,"lon":-73.954,"zone":236},{"name":"Now Now","lat":40.72608,"lon":-73.99215,"zone":114},{"name":"The SoLita SoHo Hotel","lat":40.71984,"lon":-73.99891,"zone":144},{"name":"Walker Hotel Tribeca","lat":40.71835,"lon":-74.00214,"zone":231},{"name":"Corona Hotel","lat":40.75234,"lon":-73.85374,"zone":57},{"name":"Leon Hotel","lat":40.71604,"lon":-73.99522,"zone":148},{"name":"The Beekman, A Thompson Hotel","lat":40.71103,"lon":-74.00694,"zone":209},{"name":"Madison Les Hotel","lat":40.71235,"lon":-73.99268,"zone":45},{"name":"tba","lat":40.75688,"lon":-73.99323,"zone":48},{"name":"Equinox","lat":40.75447,"lon":-74.00242,"zone":246},{"name":"Eastern Mirage Hotel","lat":40.75727,"lon":-73.8239,"zone":92},{"name":"Navy Lodge","lat":40.59873,"lon":-74.06218,"zone":6},{"name":"The Wall Street Hotel","lat":40.70548,"lon":-74.00757,"zone":87},{"name":"Marina Hotel","lat":40.68786,"lon":-73.9188,"zone":37},{"name":"Days Inn","lat":40.6988,"lon":-73.80079,"zone":130},{"name":"Truss Hotel Times Square","lat":40.75658,"lon":-73.9945,"zone":48},{"name":"Asiatic Hotel","lat":40.76117,"lon":-73.83243,"zone":92},{"name":"Astoria Inn LaGuardia Hotel","lat":40.76828,"lon":-73.91168,"zone":7},{"name":"Fairfield Inn & Suites","lat":40.58678,"lon":-74.19101,"zone":23},{"name":"Franklin Guesthouse","lat":40.733,"lon":-73.95789,"zone":112},{"name":"Loews Regency","lat":40.76452,"lon":-73.96911,"zone":237},{"name":"AC Hotel","lat":40.75564,"lon":-73.9903,"zone":100},{"name":"Casa Cipriani New York","lat":40.70106,"lon":-74.01198,"zone":88},{"name":"Moxy","lat":40.71919,"lon":-73.99423,"zone":148},{"name":"Hotel Indigo","lat":40.7217,"lon":-73.98769,"zone":148},{"name":"Arlo","lat":40.75567,"lon":-73.99361,"zone":48},{"name":"Residence Inn New York Downtown Manhattan/World Trade Center Area","lat":40.70957,"lon":-74.0098,"zone":87},{"name":"42-59 Crescent Street Hotel","lat":40.74899,"lon":-73.94184,"zone":145},{"name":"Latisha House","lat":40.65859,"lon":-73.89421,"zone":76},{"name":"Moxy NYC Times Square","lat":40.75223,"lon":-73.98926,"zone":100},{"name":"Springhill Suites","lat":40.75811,"lon":-73.94403,"zone":193},{"name":"Courtyard New York Manhattan/Times Square","lat":40.75362,"lon":-73.98617,"zone":100},{"name":"The High Line Hotel","lat":40.74593,"lon":-74.00502,"zone":68},{"name":"Hotel de Point","lat":40.78141,"lon":-73.84075,"zone":53},{"name":"voco Fiorello LaGuardia East","lat":40.78139,"lon":-73.84084,"zone":53},{"name":"La Quinta","lat":40.75868,"lon":-73.94329,"zone":193},{"name":"Moderne Hotel","lat":40.76516,"lon":-73.98293,"zone":163},{"name":"Elysée New York","lat":40.75991,"lon":-73.97317,"zone":161},{"name":"Lowell Hotel","lat":40.76571,"lon":-73.96925,"zone":237},{"name":"The Artezen","lat":40.70963,"lon":-74.0087,"zone":87},{"name":"Off Soho Suites Hotel","lat":40.7213,"lon":-73.99268,"zone":148},{"name":"Motto by Hilton Times Square","lat":40.75891,"lon":-73.98339,"zone":230},{"name":"The Old Bermuda Inn","lat":40.55364,"lon":-74.21735,"zone":204},{"name":"Hampton Inn & Suites Staten Island","lat":40.61321,"lon":-74.17871,"zone":23},{"name":"Wyndham Garden","lat":40.73234,"lon":-73.86633,"zone":196},{"name":"Courtyard New York Manhattan/Central Park","lat":40.76437,"lon":-73.98269,"zone":163},{"name":"Hotel 1080","lat":40.69442,"lon":-73.931,"zone":225},{"name":"Civilian Hotel","lat":40.76151,"lon":-73.98777,"zone":48},{"name":"Placemakr Wall Street","lat":40.70491,"lon":-74.00633,"zone":87},{"name":"Kimpton Theta New York - Times Square by IHG","lat":40.76136,"lon":-73.98651,"zone":230},{"name":"Millennium Premier Hotel New York Times Square","lat":40.75689,"lon":-73.98431,"zone":230},{"name":"Comfort Inn","lat":40.66537,"lon":-73.80748,"zone":216},{"name":"The Shoreham","lat":40.76252,"lon":-73.97635,"zone":161},{"name":"Sleep Inn","lat":40.6506,"lon":-73.95735,"zone":188},{"name":"Untitled","lat":40.72188,"lon":-73.99279,"zone":148},{"name":"faena hotel","lat":40.74472,"lon":-74.00735,"zone":246},{"name":"Riverside Tower Hotel","lat":40.78563,"lon":-73.98174,"zone":239},{"name":"Pointe Plaza Hotel","lat":40.69925,"lon":-73.95909,"zone":217},{"name":"The Ridge","lat":40.72294,"lon":-73.98934,"zone":148},{"name":"Tribeca Hotel","lat":40.70836,"lon":-74.01358,"zone":261},{"name":"Hotel Scherman","lat":40.76042,"lon":-73.98971,"zone":48},{"name":"Marriott Newark Airport","lat":40.69231,"lon":-74.18174,"zone":1},{"name":"Waldorf Astoria New York","lat":40.7565,"lon":-73.97336,"zone":162},{"name":"The Hotel Edison NYC","lat":40.75964,"lon":-73.98634,"zone":230},{"name":"InterContinental New York Barclay","lat":40.75575,"lon":-73.97351,"zone":162},{"name":"Hilton New York Midtown","lat":40.76245,"lon":-73.97971,"zone":230},{"name":"Trump International Hotel and Tower","lat":40.76912,"lon":-73.98154,"zone":142},{"name":"Baccarat Hotel New York","lat":40.76081,"lon":-73.97736,"zone":161},{"name":"Lotte New York Palace","lat":40.75799,"lon":-73.97492,"zone":161},{"name":"New York Marriott Marquis","lat":40.7586,"lon":-73.98626,"zone":230},{"name":"Club Quarters","lat":40.75997,"lon":-73.97778,"zone":161},{"name":"Home2 Suites","lat":40.75302,"lon":-73.9341,"zone":146},{"name":"Eventi","lat":40.7471,"lon":-73.99015,"zone":186},{"name":"Holiday Inn Express","lat":40.76399,"lon":-73.99456,"zone":50},{"name":"Hilton Garden Inn","lat":40.61496,"lon":-74.17644,"zone":23},{"name":"Country Inn & Suites by Radisson","lat":40.58649,"lon":-74.19047,"zone":23},{"name":"Fairfield Inn","lat":40.68057,"lon":-73.98356,"zone":25},{"name":"Essence Hotel","lat":40.67923,"lon":-73.98315,"zone":106},{"name":"New York Marriott at the Brooklyn Bridge","lat":40.69384,"lon":-73.98802,"zone":65},{"name":"Hotel le Bleu","lat":40.67327,"lon":-73.9871,"zone":106},{"name":"Ramada","lat":40.60858,"lon":-74.14659,"zone":251},{"name":"Bk Way Hotel","lat":40.67968,"lon":-73.87761,"zone":76},{"name":"The Bowery Hotel","lat":40.72604,"lon":-73.99146,"zone":79},{"name":"Hyatt Union Square New York","lat":40.73342,"lon":-73.99022,"zone":113},{"name":"Sixty SoHo","lat":40.72394,"lon":-74.00307,"zone":211},{"name":"Crosby Street Hotel","lat":40.723,"lon":-73.99741,"zone":144},{"name":"NoMo SoHo","lat":40.71974,"lon":-73.99981,"zone":144},{"name":"The Evelyn","lat":40.74397,"lon":-73.98699,"zone":234},{"name":"The Nomad","lat":40.74494,"lon":-73.98849,"zone":234},{"name":"Flatiron Hotel","lat":40.74402,"lon":-73.98926,"zone":234},{"name":"Holiday Inn Manhattan","lat":40.74542,"lon":-73.99223,"zone":186},{"name":"The Chelsean New York Hotel","lat":40.74491,"lon":-73.99425,"zone":90},{"name":"Motto By Hilton","lat":40.74409,"lon":-73.99292,"zone":90},{"name":"Aloft - W Hotel","lat":40.6917,"lon":-73.98467,"zone":65},{"name":"Sheraton Brooklyn","lat":40.69148,"lon":-73.98466,"zone":65},{"name":"The Brooklyn Hotel","lat":40.67884,"lon":-73.95118,"zone":61},{"name":"Best Western Gregory Hotel","lat":40.62437,"lon":-74.02733,"zone":14},{"name":"Paramount Inn","lat":40.728,"lon":-73.70802,"zone":101},{"name":"Hotel Pergola","lat":40.70869,"lon":-73.77694,"zone":130},{"name":"Hotel MB","lat":40.71668,"lon":-73.99494,"zone":148},{"name":"Wyndham Garden Chinatown","lat":40.71704,"lon":-73.99516,"zone":148},{"name":"Club Wyndham","lat":40.75271,"lon":-73.97244,"zone":233},{"name":"Insignia Hotel","lat":40.63574,"lon":-74.01111,"zone":227},{"name":"Quality Inn","lat":40.651,"lon":-74.01177,"zone":228},{"name":"L Hotel","lat":40.65724,"lon":-74.00283,"zone":228},{"name":"Liberty View Brooklyn Hotel","lat":40.65861,"lon":-74.00046,"zone":228},{"name":"Hotel BPM","lat":40.65661,"lon":-74.0033,"zone":228},{"name":"GLo Best Western Brooklyn","lat":40.65769,"lon":-74.00134,"zone":228},{"name":"Brooklyn Way Hotel Prospect Park","lat":40.66032,"lon":-73.99864,"zone":228},{"name":"Phoenix Hotel","lat":40.65108,"lon":-74.00328,"zone":227},{"name":"The Dominick","lat":40.72532,"lon":-74.0055,"zone":125},{"name":"Best Western Plus","lat":40.63458,"lon":-73.96775,"zone":89},{"name":"Brooklyn Vybe Hotel","lat":40.64601,"lon":-73.95842,"zone":89},{"name":"Hotel Mulberry","lat":40.71522,"lon":-73.99937,"zone":45},{"name":"Artel 535","lat":40.69213,"lon":-73.92767,"zone":225},{"name":"AMTD Idea Tribeca Hotel","lat":40.7208,"lon":-74.00562,"zone":231},{"name":"Roxy Hotel","lat":40.71937,"lon":-74.00479,"zone":231},{"name":"Imperial Hotel","lat":40.6765,"lon":-73.90021,"zone":77},{"name":"Hotel Omega","lat":40.67747,"lon":-73.89697,"zone":76},{"name":"The Ludlow Hotel","lat":40.72183,"lon":-73.9872,"zone":148},{"name":"Hotel on Rivington","lat":40.71978,"lon":-73.98809,"zone":148},{"name":"The Redford Hotel","lat":40.72032,"lon":-73.98802,"zone":148},{"name":"Blue Moon Hotel","lat":40.71857,"lon":-73.98973,"zone":148},{"name":"Hotel Richland","lat":40.71474,"lon":-73.99308,"zone":148},{"name":"Mirage Brooklyn","lat":40.67785,"lon":-73.94332,"zone":61},{"name":"Condor Hotel","lat":40.69743,"lon":-73.95893,"zone":17},{"name":"Atlantic Motor Inn","lat":40.6772,"lon":-73.9316,"zone":61},{"name":"Hampton","lat":40.69568,"lon":-73.98396,"zone":65},{"name":"Hotel Gansevoort","lat":40.73988,"lon":-74.00573,"zone":158},{"name":"The Standard","lat":40.74085,"lon":-74.00817,"zone":158},{"name":"Liberty Inn","lat":40.74201,"lon":-74.00854,"zone":158},{"name":"Soho House New York","lat":40.74059,"lon":-74.00603,"zone":158},{"name":"W Times Square Hotel","lat":40.75939,"lon":-73.98566,"zone":230},{"name":"Hyatt Centric Times Square","lat":40.75757,"lon":-73.98402,"zone":230},{"name":"Chelsea Pines Inn","lat":40.74037,"lon":-74.00337,"zone":68},{"name":"Hotel 309","lat":40.74025,"lon":-74.00309,"zone":68},{"name":"Dream Downtown","lat":40.74229,"lon":-74.00344,"zone":68},{"name":"Maritime Hotel","lat":40.74244,"lon":-74.00387,"zone":68},{"name":"Hyatt Place","lat":40.74415,"lon":-73.99432,"zone":90},{"name":"Hotel Alameda High Line","lat":40.75044,"lon":-74.0034,"zone":246},{"name":"Midtown West Hotel","lat":40.74995,"lon":-73.99565,"zone":68},{"name":"Hampton Inn Manhattan-Madison Square Garden Area","lat":40.74804,"lon":-73.99018,"zone":186},{"name":"Courtyard Marriot","lat":40.74822,"lon":-73.99119,"zone":186},{"name":"DoubleTree","lat":40.74696,"lon":-73.99141,"zone":186},{"name":"Hotel 17","lat":40.73491,"lon":-73.98455,"zone":107},{"name":"Lex Hotel NYC","lat":40.74096,"lon":-73.98341,"zone":107},{"name":"Best Western Premier","lat":40.7453,"lon":-73.98553,"zone":164},{"name":"Ace Hotel New York","lat":40.74566,"lon":-73.98824,"zone":164},{"name":"Park Lane New York","lat":40.76485,"lon":-73.97539,"zone":163},{"name":"The Ritz-Carlton","lat":40.76516,"lon":-73.97603,"zone":163},{"name":"JW Marriott Essex House","lat":40.76617,"lon":-73.97851,"zone":163},{"name":"AKA Central Park","lat":40.76431,"lon":-73.97567,"zone":163},{"name":"1 Hotel Central Park","lat":40.76471,"lon":-73.97651,"zone":163},{"name":"West 57th Street","lat":40.76437,"lon":-73.97793,"zone":163},{"name":"Thompson Central Park New York","lat":40.76433,"lon":-73.97848,"zone":163},{"name":"The Peninsula New York","lat":40.76163,"lon":-73.97542,"zone":161},{"name":"Warwick Hotel","lat":40.76245,"lon":-73.97809,"zone":161},{"name":"The Luxury Collection Hotel Manhattan Midtown","lat":40.76346,"lon":-73.98051,"zone":163},{"name":"Da Vinci Hotel","lat":40.76564,"lon":-73.983,"zone":163},{"name":"Park Central Hotel New York","lat":40.76472,"lon":-73.98119,"zone":163},{"name":"Dream Midtown","lat":40.76443,"lon":-73.98195,"zone":163},{"name":"6 Columbus","lat":40.76748,"lon":-73.98319,"zone":48},{"name":"Fairfield Inn Long Island City/Manhattan View","lat":40.73623,"lon":-73.93674,"zone":226},{"name":"Holiday Inn Express Long Island City E","lat":40.73694,"lon":-73.93637,"zone":226},{"name":"City View Inn","lat":40.73617,"lon":-73.93421,"zone":226},{"name":"New Yorker by Lotte Hotels","lat":40.75275,"lon":-73.99367,"zone":68},{"name":"The Hotel @ 5th Avenue","lat":40.74782,"lon":-73.9865,"zone":164},{"name":"Life Hotel","lat":40.74722,"lon":-73.987,"zone":164},{"name":"Hotel Wolcott","lat":40.74662,"lon":-73.98671,"zone":164},{"name":"Hotel Stanford","lat":40.74823,"lon":-73.98746,"zone":164},{"name":"nyma","lat":40.74727,"lon":-73.98635,"zone":164},{"name":"Hyatt Herald Square New York","lat":40.74699,"lon":-73.98768,"zone":164},{"name":"Martinique New York on Broadway, Curio Collection by Hilton","lat":40.74846,"lon":-73.98772,"zone":164},{"name":"The Marmara Park Avenue","lat":40.74527,"lon":-73.98162,"zone":170},{"name":"Hotel 31","lat":40.74456,"lon":-73.98181,"zone":170},{"name":"Hotel 32 32","lat":40.74604,"lon":-73.98343,"zone":164},{"name":"HGU","lat":40.746,"lon":-73.98332,"zone":164},{"name":"Hotel AKA","lat":40.74558,"lon":-73.9842,"zone":164},{"name":"Crowne Plaza HY36 Midtown Manhattan","lat":40.75374,"lon":-73.99375,"zone":68},{"name":"EVEN Hotel New York - Times Square South","lat":40.75348,"lon":-73.99387,"zone":68},{"name":"Staypineapple","lat":40.75431,"lon":-73.99393,"zone":68},{"name":"Henn Na Hotel","lat":40.75239,"lon":-73.9912,"zone":100},{"name":"Doxie Hotel","lat":40.75471,"lon":-73.99108,"zone":100},{"name":"Artel Hotel","lat":40.75572,"lon":-73.99157,"zone":48},{"name":"Element","lat":40.75584,"lon":-73.99179,"zone":48},{"name":"La Quinta Inn & Suites","lat":40.75555,"lon":-73.99303,"zone":48},{"name":"Delta Hotels by Marriott","lat":40.75653,"lon":-73.99271,"zone":48},{"name":"Distrikt Hotel","lat":40.75659,"lon":-73.99287,"zone":48},{"name":"DoubleTree by Hilton Hotel","lat":40.75669,"lon":-73.99307,"zone":48},{"name":"Candlewood Suites","lat":40.7563,"lon":-73.99297,"zone":48},{"name":"Hotel Hendricks","lat":40.75178,"lon":-73.98408,"zone":164},{"name":"Grayson","lat":40.75202,"lon":-73.98391,"zone":164},{"name":"Marriott Vacation Club, New York City","lat":40.75127,"lon":-73.98482,"zone":164},{"name":"The Draper","lat":40.75044,"lon":-73.98398,"zone":164},{"name":"The Gregorian New York City","lat":40.74971,"lon":-73.98609,"zone":164},{"name":"The Kixby","lat":40.75013,"lon":-73.98595,"zone":164},{"name":"Embassy Suites by Hilton","lat":40.75121,"lon":-73.9859,"zone":164},{"name":"Archer Hotel","lat":40.75204,"lon":-73.9847,"zone":164},{"name":"The Knickerbocker Hotel","lat":40.75524,"lon":-73.98603,"zone":100},{"name":"Skyline Hotel","lat":40.7646,"lon":-73.99255,"zone":50},{"name":"Washington Jefferson Hotel","lat":40.76316,"lon":-73.98678,"zone":48},{"name":"Belvedere Hotel","lat":40.7617,"lon":-73.98802,"zone":48},{"name":"The Empire Hotel","lat":40.77134,"lon":-73.98272,"zone":142},{"name":"Four Seasons Hotel","lat":40.76231,"lon":-73.97127,"zone":163},{"name":"Sherry Netherlands","lat":40.76431,"lon":-73.97253,"zone":237},{"name":"The Pierre","lat":40.76508,"lon":-73.97166,"zone":237},{"name":"Courtyard New York Manhattan/Fifth Avenue","lat":40.7521,"lon":-73.98108,"zone":170},{"name":"Hyatt Centric 39th & 5th New York","lat":40.75093,"lon":-73.98169,"zone":170},{"name":"AKA Sutton Place","lat":40.75787,"lon":-73.96457,"zone":229},{"name":"Beekman Tower","lat":40.75333,"lon":-73.96608,"zone":229},{"name":"Hilton Garden Inn New York/Manhattan-Midtown East","lat":40.75665,"lon":-73.96944,"zone":229},{"name":"The Pod Hotel","lat":40.75572,"lon":-73.9691,"zone":229},{"name":"United Nations Apartment Hotel","lat":40.75137,"lon":-73.97054,"zone":233},{"name":"Seton Hotel","lat":40.74964,"lon":-73.97629,"zone":170},{"name":"Pod 39","lat":40.74941,"lon":-73.97657,"zone":170},{"name":"Murray Hill East Suites","lat":40.74928,"lon":-73.97632,"zone":170},{"name":"Pestana Park Avenue","lat":40.75087,"lon":-73.98007,"zone":170},{"name":"The William","lat":40.75047,"lon":-73.98025,"zone":170},{"name":"Dylan Hotel","lat":40.7516,"lon":-73.97912,"zone":170},{"name":"The Kitano New York","lat":40.7496,"lon":-73.98001,"zone":170},{"name":"Library Hotel","lat":40.75213,"lon":-73.9794,"zone":170},{"name":"NH Collection Hotels","lat":40.74997,"lon":-73.98095,"zone":170},{"name":"EVEN Hotel Midtown East","lat":40.75184,"lon":-73.97236,"zone":233},{"name":"The Bernic","lat":40.75442,"lon":-73.97266,"zone":162},{"name":"San Carlos","lat":40.75589,"lon":-73.97153,"zone":162},{"name":"Hotel 48LEX","lat":40.75531,"lon":-73.97292,"zone":162},{"name":"Residence Inn","lat":40.75471,"lon":-73.97258,"zone":162},{"name":"The Lexington","lat":40.7549,"lon":-73.97302,"zone":162},{"name":"Doubletree by Hilton Hotel Metropolitan","lat":40.75666,"lon":-73.97142,"zone":162},{"name":"The Kimberly","lat":40.75634,"lon":-73.97137,"zone":162},{"name":"The Benjamin Royal","lat":40.75659,"lon":-73.97199,"zone":162},{"name":"The Carvi Hotel New York, Ascend Hotel Collection","lat":40.75906,"lon":-73.96936,"zone":162},{"name":"Grand Hyatt New York","lat":40.75205,"lon":-73.97634,"zone":162},{"name":"Gotham Hotel","lat":40.7554,"lon":-73.97809,"zone":161},{"name":"InterContinental New York Times Square","lat":40.75859,"lon":-73.98958,"zone":48},{"name":"The Westin","lat":40.75743,"lon":-73.98909,"zone":230},{"name":"Aliz Hotel","lat":40.75611,"lon":-73.99169,"zone":48},{"name":"Homewood Suites by Hilton","lat":40.75427,"lon":-73.99308,"zone":68},{"name":"Margaritaville Resort Times Square","lat":40.75506,"lon":-73.98812,"zone":100},{"name":"Cambria Hotel","lat":40.75947,"lon":-73.98585,"zone":230},{"name":"The Gallivant Times Square","lat":40.76052,"lon":-73.98638,"zone":230},{"name":"Mayfair","lat":40.76118,"lon":-73.98597,"zone":230},{"name":"Hyatt Regency Times Square","lat":40.76064,"lon":-73.98511,"zone":230},{"name":"citizenM","lat":40.76158,"lon":-73.98497,"zone":230},{"name":"The Algonquin Hotel Times Square Autograph Collection","lat":40.75594,"lon":-73.98235,"zone":161},{"name":"Casablanca Hotel","lat":40.7565,"lon":-73.9854,"zone":230},{"name":"City Club Hotel","lat":40.75594,"lon":-73.98211,"zone":161},{"name":"Broadway @ Times Square Hotel","lat":40.75813,"lon":-73.98344,"zone":230},{"name":"45 Times Square Hotel","lat":40.75745,"lon":-73.9838,"zone":230},{"name":"Hotel St. James","lat":40.75721,"lon":-73.9832,"zone":230},{"name":"Citadines Connect","lat":40.75593,"lon":-73.9802,"zone":161},{"name":"Hard Rock Hotel New York","lat":40.75972,"lon":-73.98328,"zone":230},{"name":"DoubleTree by Hilton","lat":40.75998,"lon":-73.97816,"zone":161},{"name":"Iroquois New York Hotel","lat":40.75585,"lon":-73.98193,"zone":161},{"name":"Millennium Hotel Broadway Times Square","lat":40.75708,"lon":-73.9848,"zone":230},{"name":"Night Theater District","lat":40.75716,"lon":-73.9842,"zone":230},{"name":"Royalton New York","lat":40.75541,"lon":-73.98239,"zone":161},{"name":"Sofitel","lat":40.75593,"lon":-73.98163,"zone":161},{"name":"The Chatwal","lat":40.75648,"lon":-73.9846,"zone":230},{"name":"The Muse New York","lat":40.75778,"lon":-73.98378,"zone":230},{"name":"Hotel Riu Plaza Manhattan Times Square","lat":40.75894,"lon":-73.98339,"zone":230},{"name":"The Michelangelo New York","lat":40.76127,"lon":-73.98256,"zone":230},{"name":"Sheraton New York Times Square Hotel","lat":40.76238,"lon":-73.98144,"zone":230},{"name":"AKA Times Square","lat":40.75679,"lon":-73.98413,"zone":230},{"name":"The Palladin","lat":40.76216,"lon":-73.96281,"zone":141},{"name":"Fitzpatrick","lat":40.76052,"lon":-73.96909,"zone":162},{"name":"Lombardy Hotel","lat":40.76081,"lon":-73.97035,"zone":162},{"name":"Concorde Hotel","lat":40.75998,"lon":-73.97042,"zone":162},{"name":"Hotel 57","lat":40.7608,"lon":-73.96959,"zone":162},{"name":"Plaza Athénée","lat":40.7666,"lon":-73.96829,"zone":237},{"name":"The Carlyle","lat":40.77439,"lon":-73.96299,"zone":237},{"name":"The Surrey","lat":40.77432,"lon":-73.96403,"zone":237},{"name":"Le Méridien New York, Central Park","lat":40.76457,"lon":-73.97847,"zone":163},{"name":"The Phillips Club","lat":40.77452,"lon":-73.98314,"zone":142},{"name":"The Lucerne","lat":40.78351,"lon":-73.97846,"zone":239},{"name":"Imperial Court Hotel","lat":40.78483,"lon":-73.98164,"zone":239},{"name":"Aloft Hotel","lat":40.80914,"lon":-73.95143,"zone":41},{"name":"Hotel Moca","lat":40.84857,"lon":-73.93128,"zone":243},{"name":"Opera House Hotel","lat":40.81492,"lon":-73.91563,"zone":168},{"name":"TownePlace Suites","lat":40.75744,"lon":-73.9429,"zone":193},{"name":"The Vine Hotel Bronx","lat":40.88183,"lon":-73.86441,"zone":254},{"name":"Hilton Garden Inn New York/Times Square Central","lat":40.75519,"lon":-73.98566,"zone":100},{"name":"Renaissance","lat":40.75173,"lon":-73.99106,"zone":100},{"name":"The Washington New York City","lat":40.70921,"lon":-74.01367,"zone":261},{"name":"Marriott Downtown","lat":40.70943,"lon":-74.01434,"zone":261},{"name":"M Social Hotel New York Downtown","lat":40.71113,"lon":-74.01022,"zone":261},{"name":"The FiDi Hotel","lat":40.70423,"lon":-74.01227,"zone":88},{"name":"Wall Street Inn","lat":40.70458,"lon":-74.01027,"zone":88},{"name":"Radisson Hotel New York Wall Street","lat":40.70674,"lon":-74.00891,"zone":87},{"name":"Hampton Inn Manhattan-Seaport-Financial District","lat":40.7089,"lon":-74.00203,"zone":209},{"name":"Hotel Mimosa","lat":40.71413,"lon":-73.99378,"zone":45},{"name":"Brooklyn Motor Inn","lat":40.68179,"lon":-74.00658,"zone":195},{"name":"The Lodge Red Hook","lat":40.68,"lon":-74.00596,"zone":195},{"name":"Nova Hotel","lat":40.70724,"lon":-73.93409,"zone":37},{"name":"The Penny","lat":40.71545,"lon":-73.95298,"zone":255},{"name":"The Pod","lat":40.71535,"lon":-73.95886,"zone":255},{"name":"Fairfield Inn & Suites New York Midtown Manhattan/Penn Station","lat":40.75227,"lon":-73.99511,"zone":68},{"name":"Hotel Le Jolie","lat":40.71658,"lon":-73.9508,"zone":255},{"name":"Arlo Williamsburg","lat":40.72162,"lon":-73.95887,"zone":255},{"name":"Box House Hotel","lat":40.73781,"lon":-73.95368,"zone":112},{"name":"Pan American Hotel","lat":40.73776,"lon":-73.88464,"zone":83},{"name":"Holiday Inn Express & Suites","lat":40.74069,"lon":-73.90133,"zone":260},{"name":"Giorgio Hotel","lat":40.75659,"lon":-73.9414,"zone":193},{"name":"Sleep Inn Hotel","lat":40.75592,"lon":-73.9412,"zone":193},{"name":"Mayflower Howard Johnson Hotel","lat":40.75654,"lon":-73.94207,"zone":193},{"name":"Baymont","lat":40.75961,"lon":-73.94113,"zone":193},{"name":"Ramada Long Island City","lat":40.75523,"lon":-73.93672,"zone":146},{"name":"Romer Hell's Kitchen","lat":40.76336,"lon":-73.98582,"zone":48},{"name":"LIC Manhattan View","lat":40.75323,"lon":-73.93438,"zone":146},{"name":"LIC Hotel","lat":40.74941,"lon":-73.94719,"zone":145},{"name":"Ravel Hotel","lat":40.75374,"lon":-73.94894,"zone":145},{"name":"Z NYC Hotel","lat":40.75198,"lon":-73.94749,"zone":145},{"name":"Aloft","lat":40.74847,"lon":-73.93984,"zone":145},{"name":"Courtyard Marriott","lat":40.76915,"lon":-73.87946,"zone":129},{"name":"Aloft New York LaGuardia Airport","lat":40.77035,"lon":-73.86992,"zone":70},{"name":"Hampton Inn LaGuardia","lat":40.768,"lon":-73.8678,"zone":70},{"name":"LaGuardia Plaza Hotel","lat":40.76704,"lon":-73.86691,"zone":70},{"name":"New York LaGuardia Airport Marriott","lat":40.76901,"lon":-73.86761,"zone":70},{"name":"Travelodge","lat":40.67177,"lon":-73.84424,"zone":180},{"name":"Hillcrest Hotel","lat":40.70898,"lon":-73.7974,"zone":130},{"name":"Blue Bird Inn","lat":40.69785,"lon":-73.81003,"zone":130},{"name":"Wingate by Wyndham","lat":40.69961,"lon":-73.81137,"zone":130},{"name":"Lexington Inn","lat":40.70271,"lon":-73.81527,"zone":28},{"name":"Best Western Jamaica Inn","lat":40.70591,"lon":-73.81732,"zone":28},{"name":"Bryant Park Hotel","lat":40.75283,"lon":-73.98394,"zone":164},{"name":"Anchor Inn","lat":40.76048,"lon":-73.76619,"zone":16},{"name":"Adria Hotel & Conference Center","lat":40.76202,"lon":-73.75993,"zone":16},{"name":"Courtyard By Marriott","lat":40.74029,"lon":-73.79084,"zone":9},{"name":"Fairfield Inn & Suites By Marriott","lat":40.74043,"lon":-73.79025,"zone":9},{"name":"Hotel Key","lat":40.76538,"lon":-73.83168,"zone":92},{"name":"Flushing Central Hotel","lat":40.7607,"lon":-73.83158,"zone":92},{"name":"The One Boutique Hotel","lat":40.76349,"lon":-73.82842,"zone":92},{"name":"Sky Hotel","lat":40.76077,"lon":-73.83367,"zone":92},{"name":"East New York Inn","lat":40.67617,"lon":-73.90314,"zone":177},{"name":"The Westin New York","lat":40.75017,"lon":-73.97398,"zone":233},{"name":"Aloft Manhattan Downtown","lat":40.71041,"lon":-74.00667,"zone":209},{"name":"LeSoleil","lat":40.75026,"lon":-73.98546,"zone":164},{"name":"Arlo NoMad","lat":40.74633,"lon":-73.98491,"zone":164},{"name":"Hyatt House","lat":40.74629,"lon":-73.9907,"zone":186},{"name":"Cambria Hotel & Suites","lat":40.74674,"lon":-73.99156,"zone":186},{"name":"Cassa Hotel","lat":40.75634,"lon":-73.98219,"zone":161},{"name":"PUBLIC, an Ian Schrager hotel","lat":40.72305,"lon":-73.99202,"zone":148},{"name":"Arlo Soho","lat":40.72443,"lon":-74.00825,"zone":125},{"name":"Courtyard New York Downtown Financial District","lat":40.70722,"lon":-74.00633,"zone":87},{"name":"The Cloud One New York-Downtown","lat":40.70934,"lon":-74.01265,"zone":261},{"name":"Walker Hotel","lat":40.73617,"lon":-73.99664,"zone":113},{"name":"LUMA Hotel Times Square","lat":40.75439,"lon":-73.98577,"zone":100},{"name":"Holiday Inn Brooklyn Downtown","lat":40.68745,"lon":-73.98264,"zone":25},{"name":"Virgin Hotel","lat":40.74657,"lon":-73.98894,"zone":164},{"name":"The Vue Hotel","lat":40.75355,"lon":-73.94105,"zone":146},{"name":"Ace Hotel Brooklyn","lat":40.68784,"lon":-73.98372,"zone":25},{"name":"EVEN Hotel","lat":40.68764,"lon":-73.98183,"zone":25},{"name":"l","lat":40.77013,"lon":-73.86931,"zone":70},{"name":"1 Hotel Brooklyn Bridge","lat":40.70227,"lon":-73.99552,"zone":33},{"name":"Canal Loft Hotel","lat":40.71528,"lon":-73.99379,"zone":148},{"name":"Wyndham Garden Fresh Meadows","lat":40.7394,"lon":-73.78773,"zone":98},{"name":"Hotel Nirvana","lat":40.7592,"lon":-73.93988,"zone":193},{"name":"Surface Inn","lat":40.66949,"lon":-73.90902,"zone":35},{"name":"Bogart Hotel","lat":40.70381,"lon":-73.93315,"zone":37},{"name":"Wingate by Wyndham Long Island City","lat":40.7566,"lon":-73.94265,"zone":193},{"name":"Marriott New York JFK Airport","lat":40.66731,"lon":-73.79666,"zone":10},{"name":"Casa Blanca Hotel","lat":40.69642,"lon":-73.97384,"zone":97},{"name":"Hotel 50 Bowery","lat":40.71596,"lon":-73.99683,"zone":45},{"name":"avid Hotel","lat":40.61885,"lon":-74.02237,"zone":67},{"name":"Comfort Inn & Suites","lat":40.81007,"lon":-73.92943,"zone":168},{"name":"The Rockaway Hotel","lat":40.58152,"lon":-73.83024,"zone":201},{"name":"Umbrella Hotel","lat":40.8189,"lon":-73.91493,"zone":159},{"name":"42 Hotel","lat":40.70699,"lon":-73.95192,"zone":256},{"name":"Hotel Central Times Square","lat":40.75433,"lon":-73.99412,"zone":68},{"name":"Microtel Inn & Suites","lat":40.75191,"lon":-73.93528,"zone":146},{"name":"La Quinta Inn & Suites Far Rockaway","lat":40.5934,"lon":-73.77515,"zone":117},{"name":"King Hotel","lat":40.64902,"lon":-74.0007,"zone":227},{"name":"Sleep Inn & Suites","lat":40.69231,"lon":-73.8089,"zone":215},{"name":"Lotus BLU Inn & Suites","lat":40.75555,"lon":-73.93775,"zone":146},{"name":"The Allen Hotel","lat":40.71804,"lon":-73.99064,"zone":148},{"name":"Pendry Manhattan West","lat":40.75316,"lon":-73.99849,"zone":68},{"name":"Renaissance New York Chelsea Hotel","lat":40.74431,"lon":-73.99274,"zone":90},{"name":"Radio Hotel","lat":40.84793,"lon":-73.93156,"zone":243},{"name":"Warren Street Hotel","lat":40.71557,"lon":-74.01047,"zone":231},{"name":"Best Western Plus Soho Hotel","lat":40.71824,"lon":-74.00121,"zone":231},{"name":"Tru by Hilton","lat":40.67759,"lon":-73.98512,"zone":106},{"name":"Hotel Bliss","lat":40.66401,"lon":-73.8771,"zone":76},{"name":"Super 8","lat":40.67745,"lon":-73.89415,"zone":76}]